[
  {"slug": "uhuru-park", "name": "Uhuru Park", "category": "Park", "neighbourhood": "CBD", "lat": -1.286389, "lng": 36.817223, "entry_fee": 0, "avg_food": 200, "duration_min": 60, "rating": 4.2, "price_tier": "Free", "tags": ["nature", "lake", "walk", "relaxing"], "vibes": ["chill", "scenic"], "popularity": 0.8},
  {"slug": "karura-forest", "name": "Karura Forest", "category": "Park", "neighbourhood": "Gigiri", "lat": -1.2444, "lng": 36.8253, "entry_fee": 100, "avg_food": 250, "duration_min": 180, "rating": 4.7, "price_tier": "Budget", "tags": ["nature", "hiking", "biking", "forest", "waterfall"], "vibes": ["adventurous", "scenic", "chill"], "popularity": 0.9},
  {"slug": "nairobi-arboretum", "name": "Nairobi Arboretum", "category": "Park", "neighbourhood": "Kilimani", "lat": -1.2903, "lng": 36.8037, "entry_fee": 50, "avg_food": 200, "duration_min": 90, "rating": 4.3, "price_tier": "Budget", "tags": ["nature", "trees", "walk", "relaxing"], "vibes": ["chill", "scenic", "quiet"], "popularity": 0.75},
  {"slug": "city-park", "name": "City Park", "category": "Park", "neighbourhood": "Parklands", "lat": -1.2731, "lng": 36.8267, "entry_fee": 0, "avg_food": 150, "duration_min": 60, "rating": 4.0, "price_tier": "Free", "tags": ["nature", "monkeys", "walk"], "vibes": ["chill", "scenic"], "popularity": 0.6},
  {"slug": "maasai-market", "name": "Maasai Market", "category": "Market", "neighbourhood": "CBD", "lat": -1.2892, "lng": 36.8219, "entry_fee": 0, "avg_food": 150, "duration_min": 90, "rating": 4.0, "price_tier": "Free", "tags": ["souvenirs", "handicrafts", "shopping", "culture"], "vibes": ["authentic", "local", "chill"], "popularity": 0.9},
  {"slug": "city-market", "name": "City Market", "category": "Market", "neighbourhood": "CBD", "lat": -1.2833, "lng": 36.8219, "entry_fee": 0, "avg_food": 200, "duration_min": 60, "rating": 3.8, "price_tier": "Free", "tags": ["fresh-produce", "local", "food"], "vibes": ["authentic", "local", "energetic"], "popularity": 0.7},
  {"slug": "village-market", "name": "Village Market", "category": "Mall", "neighbourhood": "Gigiri", "lat": -1.2291, "lng": 36.8128, "entry_fee": 0, "avg_food": 800, "duration_min": 120, "rating": 4.3, "price_tier": "Premium", "tags": ["shopping", "food", "entertainment", "movies"], "vibes": ["chill", "scenic"], "popularity": 0.85},
  {"slug": "westgate-mall", "name": "Westgate Mall", "category": "Mall", "neighbourhood": "Westlands", "lat": -1.2691, "lng": 36.8067, "entry_fee": 0, "avg_food": 600, "duration_min": 120, "rating": 4.1, "price_tier": "Premium", "tags": ["shopping", "cinema", "food", "entertainment"], "vibes": ["chill"], "popularity": 0.8},
  {"slug": "galleria-mall", "name": "Galleria Mall", "category": "Mall", "neighbourhood": "Langata", "lat": -1.3536, "lng": 36.7753, "entry_fee": 0, "avg_food": 500, "duration_min": 90, "rating": 3.9, "price_tier": "Mid", "tags": ["shopping", "food", "cinema", "family"], "vibes": ["chill"], "popularity": 0.7},
  {"slug": "the-hub", "name": "The Hub Karen", "category": "Mall", "neighbourhood": "Karen", "lat": -1.3392, "lng": 36.7148, "entry_fee": 0, "avg_food": 700, "duration_min": 120, "rating": 4.4, "price_tier": "Premium", "tags": ["shopping", "food", "cinema", "modern"], "vibes": ["chill", "scenic"], "popularity": 0.85},
  {"slug": "nairobi-museum", "name": "Nairobi National Museum", "category": "Attraction", "neighbourhood": "CBD", "lat": -1.2734, "lng": 36.8162, "entry_fee": 200, "avg_food": 300, "duration_min": 120, "rating": 4.5, "price_tier": "Budget", "tags": ["history", "culture", "art", "artifacts"], "vibes": ["authentic", "local"], "popularity": 0.7},
  {"slug": "sarakasi-trust", "name": "Sarakasi Trust", "category": "Attraction", "neighbourhood": "CBD", "lat": -1.2833, "lng": 36.8219, "entry_fee": 150, "avg_food": 400, "duration_min": 90, "rating": 4.4, "price_tier": "Mid", "tags": ["performance", "arts", "culture", "dance", "acrobatics"], "vibes": ["authentic", "local"], "popularity": 0.6},
  {"slug": "safari-walk", "name": "Safari Walk", "category": "Attraction", "neighbourhood": "Langata", "lat": -1.3647, "lng": 36.8583, "entry_fee": 250, "avg_food": 350, "duration_min": 150, "rating": 4.3, "price_tier": "Mid", "tags": ["nature", "walk", "animals", "wildlife"], "vibes": ["chill", "scenic", "authentic"], "popularity": 0.75},
  {"slug": "giraffe-centre", "name": "Giraffe Centre", "category": "Attraction", "neighbourhood": "Langata", "lat": -1.3747, "lng": 36.7478, "entry_fee": 500, "avg_food": 400, "duration_min": 90, "rating": 4.6, "price_tier": "Mid", "tags": ["wildlife", "giraffes", "conservation", "nature"], "vibes": ["adventurous", "authentic", "scenic"], "popularity": 0.9},
  {"slug": "mamba-village", "name": "Mamba Village", "category": "Attraction", "neighbourhood": "Langata", "lat": -1.3558, "lng": 36.7556, "entry_fee": 300, "avg_food": 500, "duration_min": 90, "rating": 4.1, "price_tier": "Mid", "tags": ["crocodiles", "reptiles", "wildlife", "nature"], "vibes": ["adventurous", "authentic"], "popularity": 0.65},
  {"slug": "karen-blixen", "name": "Karen Blixen Museum", "category": "Attraction", "neighbourhood": "Karen", "lat": -1.3347, "lng": 36.7125, "entry_fee": 400, "avg_food": 450, "duration_min": 90, "rating": 4.4, "price_tier": "Mid", "tags": ["history", "colonial", "culture", "house"], "vibes": ["authentic", "scenic", "chill"], "popularity": 0.7},
  {"slug": "bomas-kenya", "name": "Bomas of Kenya", "category": "Attraction", "neighbourhood": "Langata", "lat": -1.3733, "lng": 36.7711, "entry_fee": 350, "avg_food": 400, "duration_min": 150, "rating": 4.5, "price_tier": "Mid", "tags": ["culture", "traditional", "dance", "music", "homesteads"], "vibes": ["authentic", "local", "adventurous"], "popularity": 0.8},
  {"slug": "nairobi-national-park", "name": "Nairobi National Park", "category": "Attraction", "neighbourhood": "Langata", "lat": -1.3754, "lng": 36.8351, "entry_fee": 1000, "avg_food": 500, "duration_min": 240, "rating": 4.8, "price_tier": "Premium", "tags": ["wildlife", "safari", "lions", "rhinos", "nature"], "vibes": ["adventurous", "scenic", "authentic"], "popularity": 0.95},
  {"slug": "java-westlands", "name": "Java House Westlands", "category": "Café", "neighbourhood": "Westlands", "lat": -1.2686, "lng": 36.8046, "entry_fee": 0, "avg_food": 450, "duration_min": 45, "rating": 4.2, "price_tier": "Mid", "tags": ["coffee", "food", "wifi", "work-friendly"], "vibes": ["chill", "authentic"], "popularity": 0.85},
  {"slug": "artcaffe-gigiri", "name": "Artcaffe Gigiri", "category": "Café", "neighbourhood": "Gigiri", "lat": -1.2314, "lng": 36.8153, "entry_fee": 0, "avg_food": 600, "duration_min": 60, "rating": 4.3, "price_tier": "Mid", "tags": ["coffee", "bakery", "pizza", "wifi"], "vibes": ["chill", "scenic"], "popularity": 0.8},
  {"slug": "wasp-and-sprout", "name": "Wasp & Sprout", "category": "Café", "neighbourhood": "Lavington", "lat": -1.2958, "lng": 36.7613, "entry_fee": 0, "avg_food": 500, "duration_min": 60, "rating": 4.5, "price_tier": "Mid", "tags": ["coffee", "brunch", "organic", "cozy"], "vibes": ["chill", "authentic", "scenic"], "popularity": 0.75},
  {"slug": "connect-coffee", "name": "Connect Coffee", "category": "Café", "neighbourhood": "Westlands", "lat": -1.2675, "lng": 36.8075, "entry_fee": 0, "avg_food": 400, "duration_min": 45, "rating": 4.4, "price_tier": "Mid", "tags": ["coffee", "specialty", "roastery", "wifi"], "vibes": ["chill", "authentic"], "popularity": 0.7},
  {"slug": "tamarind-restaurant", "name": "Tamarind Restaurant", "category": "Restaurant", "neighbourhood": "Langata", "lat": -1.3611, "lng": 36.7889, "entry_fee": 0, "avg_food": 1200, "duration_min": 90, "rating": 4.6, "price_tier": "Premium", "tags": ["fine-dining", "seafood", "view", "romantic"], "vibes": ["scenic", "chill"], "popularity": 0.8},
  {"slug": "carnivore-restaurant", "name": "Carnivore Restaurant", "category": "Restaurant", "neighbourhood": "Langata", "lat": -1.3289, "lng": 36.7856, "entry_fee": 0, "avg_food": 1500, "duration_min": 120, "rating": 4.5, "price_tier": "Premium", "tags": ["nyama-choma", "meat", "traditional", "bbq"], "vibes": ["authentic", "local", "adventurous"], "popularity": 0.9},
  {"slug": "mama-rocks", "name": "Mama Rocks", "category": "Restaurant", "neighbourhood": "Westlands", "lat": -1.2691, "lng": 36.8055, "entry_fee": 0, "avg_food": 800, "duration_min": 90, "rating": 4.4, "price_tier": "Premium", "tags": ["gourmet", "burgers", "african-fusion", "street-food"], "vibes": ["chill", "authentic", "local"], "popularity": 0.8},
  {"slug": "ola-parklands", "name": "Ola Energy Parklands", "category": "Restaurant", "neighbourhood": "Parklands", "lat": -1.2596, "lng": 36.8226, "entry_fee": 0, "avg_food": 350, "duration_min": 60, "rating": 3.8, "price_tier": "Mid", "tags": ["fast-food", "convenience", "24-hour"], "vibes": ["local", "chill"], "popularity": 0.6},
  {"slug": "talisman-restaurant", "name": "Talisman Restaurant", "category": "Restaurant", "neighbourhood": "Karen", "lat": -1.3367, "lng": 36.7194, "entry_fee": 0, "avg_food": 1000, "duration_min": 90, "rating": 4.7, "price_tier": "Premium", "tags": ["gourmet", "garden", "international", "romantic"], "vibes": ["scenic", "chill", "authentic"], "popularity": 0.85},
  {"slug": "about-thyme", "name": "About Thyme", "category": "Restaurant", "neighbourhood": "Kilimani", "lat": -1.2956, "lng": 36.7924, "entry_fee": 0, "avg_food": 900, "duration_min": 90, "rating": 4.5, "price_tier": "Premium", "tags": ["mediterranean", "garden", "romantic", "quiet"], "vibes": ["chill", "scenic", "authentic"], "popularity": 0.75},
  {"slug": "mojo-fried-chicken", "name": "Mojo Fried Chicken", "category": "Restaurant", "neighbourhood": "Westlands", "lat": -1.2703, "lng": 36.8083, "entry_fee": 0, "avg_food": 600, "duration_min": 60, "rating": 4.2, "price_tier": "Mid", "tags": ["fried-chicken", "fast-casual", "trendy"], "vibes": ["chill", "energetic"], "popularity": 0.8},
  {"slug": "fogo-gaucho", "name": "Fogo Gaucho", "category": "Restaurant", "neighbourhood": "Westlands", "lat": -1.2679, "lng": 36.8067, "entry_fee": 0, "avg_food": 1800, "duration_min": 120, "rating": 4.6, "price_tier": "Premium", "tags": ["brazilian", "steakhouse", "all-you-can-eat", "meat"], "vibes": ["chill", "energetic"], "popularity": 0.85},
  {"slug": "koinange-street", "name": "Koinange Street", "category": "Attraction", "neighbourhood": "CBD", "lat": -1.2833, "lng": 36.8167, "entry_fee": 0, "avg_food": 100, "duration_min": 30, "rating": 3.5, "price_tier": "Free", "tags": ["street-life", "local", "nightlife"], "vibes": ["energetic", "local"], "popularity": 0.7},
  {"slug": "nairobi-railway-museum", "name": "Nairobi Railway Museum", "category": "Attraction", "neighbourhood": "CBD", "lat": -1.2736, "lng": 36.8194, "entry_fee": 100, "avg_food": 200, "duration_min": 60, "rating": 4.0, "price_tier": "Budget", "tags": ["history", "trains", "culture"], "vibes": ["authentic", "chill"], "popularity": 0.65},
  {"slug": "nairobi-gallery", "name": "Nairobi Gallery", "category": "Attraction", "neighbourhood": "CBD", "lat": -1.2722, "lng": 36.8169, "entry_fee": 50, "avg_food": 250, "duration_min": 45, "rating": 4.1, "price_tier": "Budget", "tags": ["art", "culture", "exhibits"], "vibes": ["chill", "authentic"], "popularity": 0.6},
  {"slug": "tom-mboya-statue", "name": "Tom Mboya Statue", "category": "Attraction", "neighbourhood": "CBD", "lat": -1.2833, "lng": 36.8167, "entry_fee": 0, "avg_food": 100, "duration_min": 15, "rating": 3.8, "price_tier": "Free", "tags": ["history", "politics", "landmark"], "vibes": ["chill", "historic"], "popularity": 0.5},
  {"slug": "westlands-square", "name": "Westlands Square", "category": "Mall", "neighbourhood": "Westlands", "lat": -1.2656, "lng": 36.8056, "entry_fee": 0, "avg_food": 700, "duration_min": 90, "rating": 4.0, "price_tier": "Mid", "tags": ["shopping", "food", "cinema"], "vibes": ["chill"], "popularity": 0.75},
  {"slug": "sarit-centre", "name": "Sarit Centre", "category": "Mall", "neighbourhood": "Westlands", "lat": -1.2644, "lng": 36.8072, "entry_fee": 0, "avg_food": 600, "duration_min": 120, "rating": 4.2, "price_tier": "Mid", "tags": ["shopping", "food", "entertainment"], "vibes": ["chill", "scenic"], "popularity": 0.8},
  {"slug": "yaya-centre", "name": "Yaya Centre", "category": "Mall", "neighbourhood": "Gigiri", "lat": -1.2289, "lng": 36.8122, "entry_fee": 0, "avg_food": 500, "duration_min": 90, "rating": 4.0, "price_tier": "Mid", "tags": ["shopping", "food", "cinema"], "vibes": ["chill"], "popularity": 0.7},
  {"slug": "two-rivers-mall", "name": "Two Rivers Mall", "category": "Mall", "neighbourhood": "Langata", "lat": -1.3056, "lng": 36.75, "entry_fee": 0, "avg_food": 550, "duration_min": 100, "rating": 4.1, "price_tier": "Mid", "tags": ["shopping", "food", "cinema", "family"], "vibes": ["chill"], "popularity": 0.75},
  {"slug": "junction-mall", "name": "Junction Mall", "category": "Mall", "neighbourhood": "Parklands", "lat": -1.2667, "lng": 36.8167, "entry_fee": 0, "avg_food": 450, "duration_min": 80, "rating": 3.9, "price_tier": "Mid", "tags": ["shopping", "food"], "vibes": ["chill"], "popularity": 0.65},
  {"slug": "nairobi-java-house", "name": "Java House Nairobi", "category": "Café", "neighbourhood": "CBD", "lat": -1.2833, "lng": 36.8167, "entry_fee": 0, "avg_food": 400, "duration_min": 45, "rating": 4.1, "price_tier": "Mid", "tags": ["coffee", "food", "wifi"], "vibes": ["chill"], "popularity": 0.8},
  {"slug": "caramel-restaurant", "name": "Caramel Restaurant", "category": "Restaurant", "neighbourhood": "Westlands", "lat": -1.2678, "lng": 36.8056, "entry_fee": 0, "avg_food": 900, "duration_min": 90, "rating": 4.3, "price_tier": "Premium", "tags": ["fine-dining", "international"], "vibes": ["chill", "romantic"], "popularity": 0.75},
  {"slug": "galitos-restaurant", "name": "Galitos Restaurant", "category": "Restaurant", "neighbourhood": "CBD", "lat": -1.2833, "lng": 36.8167, "entry_fee": 0, "avg_food": 700, "duration_min": 60, "rating": 4.0, "price_tier": "Mid", "tags": ["fried-chicken", "fast-casual"], "vibes": ["chill", "local"], "popularity": 0.7},
  {"slug": "kfc-nairobi", "name": "KFC Nairobi", "category": "Restaurant", "neighbourhood": "CBD", "lat": -1.2833, "lng": 36.8167, "entry_fee": 0, "avg_food": 500, "duration_min": 30, "rating": 3.5, "price_tier": "Mid", "tags": ["fried-chicken", "fast-food"], "vibes": ["energetic"], "popularity": 0.6},
  {"slug": "subway-nairobi", "name": "Subway Nairobi", "category": "Restaurant", "neighbourhood": "CBD", "lat": -1.2833, "lng": 36.8167, "entry_fee": 0, "avg_food": 400, "duration_min": 20, "rating": 3.8, "price_tier": "Mid", "tags": ["sandwiches", "fast-food"], "vibes": ["chill"], "popularity": 0.55},
  {"slug": "pizza-inn-nairobi", "name": "Pizza Inn Nairobi", "category": "Restaurant", "neighbourhood": "CBD", "lat": -1.2833, "lng": 36.8167, "entry_fee": 0, "avg_food": 600, "duration_min": 45, "rating": 4.0, "price_tier": "Mid", "tags": ["pizza", "italian"], "vibes": ["chill", "family"], "popularity": 0.7},
  {"slug": "serena-hotel", "name": "Serena Hotel Nairobi", "category": "Attraction", "neighbourhood": "CBD", "lat": -1.2833, "lng": 36.8167, "entry_fee": 0, "avg_food": 1500, "duration_min": 120, "rating": 4.5, "price_tier": "Premium", "tags": ["hotel", "luxury", "pool"], "vibes": ["chill", "scenic"], "popularity": 0.8},
  {"slug": "nairobi-zoo", "name": "Nairobi Zoo", "category": "Attraction", "neighbourhood": "CBD", "lat": -1.2722, "lng": 36.8167, "entry_fee": 300, "avg_food": 350, "duration_min": 120, "rating": 4.2, "price_tier": "Mid", "tags": ["wildlife", "animals", "family"], "vibes": ["adventurous", "family"], "popularity": 0.85},
  {"slug": "luthuli-memorial", "name": "Luthuli Memorial", "category": "Attraction", "neighbourhood": "CBD", "lat": -1.2833, "lng": 36.8167, "entry_fee": 0, "avg_food": 100, "duration_min": 30, "rating": 3.9, "price_tier": "Free", "tags": ["history", "memorial"], "vibes": ["chill", "historic"], "popularity": 0.5},
  {"slug": "kenyatta-conference-centre", "name": "Kenyatta Conference Centre", "category": "Attraction", "neighbourhood": "CBD", "lat": -1.2833, "lng": 36.8167, "entry_fee": 0, "avg_food": 200, "duration_min": 60, "rating": 4.0, "price_tier": "Free", "tags": ["architecture", "events"], "vibes": ["chill"], "popularity": 0.6},
  {"slug": "university-of-nairobi", "name": "University of Nairobi", "category": "Attraction", "neighbourhood": "CBD", "lat": -1.2833, "lng": 36.8167, "entry_fee": 0, "avg_food": 150, "duration_min": 90, "rating": 4.1, "price_tier": "Free", "tags": ["education", "architecture"], "vibes": ["chill", "academic"], "popularity": 0.65}
]
